{
  "marker": [
    {
      "latitude": "32.7180956",
      "longitude": "-117.1686151",
      "name": "Storefront + Delivery",
      "portalImage": "../../assets/imgs/delivery.png",
      "logo": "420-img.gif",
      "city": "San Diego",
      "state_code": "TX",
      "zipcode": "92101",
      "address": "1240 India Street, San Diego, CA, USA",
      "state": "California",
      "description": "",
      "id": "2081",
      "store_type_id": "2",
      "suite_no": "",
      "isDoctor": "0",
      "slug": "Storefront-Delivery",
      "distance": "0.65",
      "portalUrl": "/marijuana-dispensary/portal-2081/Storefront-Delivery"
    },
    {
      "latitude": "32.7886006",
      "longitude": "-117.0974963",
      "name": "Doctor",
      "portalImage": "../../assets/imgs/doctor.png",
      "logo": "420-img.gif",
      "city": "San Diego",
      "state_code": "TX",
      "zipcode": "92120",
      "address": "1255 Mission Gorge Road, San Diego, CA, USA",
      "state": "California",
      "description": null,
      "id": "2082",
      "store_type_id": "4",
      "suite_no": null,
      "isDoctor": "1",
      "slug": "Doctor",
      "distance": "5.78",
      "portalUrl": "/marijuana-doctor/portal-2082/Doctor"
    },
    {
      "latitude": "32.744513",
      "longitude": "-117.026218",
      "name": "Storefront",
      "portalImage": "../../assets/imgs/dispensary.png",
      "logo": "420-img.gif",
      "city": "Lemon Grove",
      "state_code": "CA",
      "zipcode": "91945",
      "address": "3555 Grove Street, Lemon Grove, CA, USA",
      "state": "California",
      "description": "",
      "id": "2080",
      "store_type_id": "1",
      "suite_no": "33",
      "isDoctor": "0",
      "slug": "Storefront",
      "distance": "8.14",
      "portalUrl": "/marijuana-dispensary/portal-2080/Storefront"
    },
    {
      "latitude": "32.740149",
      "longitude": "-117.014909",
      "name": "storefront + delivery 2",
      "portalImage": "../../assets/imgs/delivery.png",
      "logo": "420-img.gif",
      "city": "Lemon Grove",
      "state_code": "CA",
      "zipcode": "91945",
      "address": "3220 Sweetwater Road, Lemon Grove, CA, USA",
      "state": "California",
      "description": "Testing this emojiüòù",
      "id": "2084",
      "store_type_id": "2",
      "suite_no": "11",
      "isDoctor": "0",
      "slug": "storefront-delivery-2",
      "distance": "8.75",
      "portalUrl": "/marijuana-dispensary/portal-2084/storefront-delivery-2"
    },
    {
      "latitude": "32.6071784",
      "longitude": "-117.0578706",
      "name": "Delivery",
      "portalImage": "../../assets/imgs/dispensary.png",
      "logo": "420-img.gif",
      "city": null,
      "state_code": null,
      "zipcode": "91911",
      "address": "1358 1st Ave, Chula Vista, CA 91911, USA",
      "state": null,
      "description": ";jasldf l jdfklj f?klj askdlf",
      "id": "2083",
      "store_type_id": "3",
      "suite_no": "",
      "isDoctor": "0",
      "slug": "Delivery",
      "distance": 10.35,
      "portalUrl": "/marijuana-dispensary/portal-2083/Delivery"
    }
  ]
}